[
  {
    "province": "Eastern Cape",
    "type": "Magistrate Court",
    "name": "Butterworth",
    "eqc": "Yes",
    "scc": "Yes",
    "soc": "Yes",
    "mds": "No",
    "tel": "047-4913271",
    "longitude": "28.14535",
    "latitude": "-32.33078"
  },
  {
    "province": "Eastern Cape",
    "type": "Magistrate Court",
    "name": "East London",
    "eqc": "Yes",
    "scc": "Yes",
    "soc": "Yes",
    "mds": "No",
    "tel": "043-7028000",
    "longitude": "27.90373",
    "latitude": "-33.02075"
  },
  {
    "province": "Eastern Cape",
    "type": "Magistrate Court",
    "name": "Port Elizabeth",
    "eqc": "Yes",
    "scc": "Yes",
    "soc": "Yes",
    "mds": "No",
    "tel": "041-5025133/5111/5214",
    "longitude": "25.60463",
    "latitude": "-33.94436"
  },
  {
    "province": "Eastern Cape",
    "type": "Magistrate Court",
    "name": "Tsolo",
    "eqc": "Yes",
    "scc": "Yes",
    "soc": "Yes",
    "mds": "No",
    "tel": "047-5420002",
    "longitude": "28.75651",
    "latitude": "-31.31137"
  },
  {
    "province": "Free State",
    "type": "Magistrate Court",
    "name": "Bethlehem",
    "eqc": "Yes",
    "scc": "Yes",
    "soc": "Yes",
    "mds": "No",
    "tel": "058-3035386",
    "longitude": "28.30458",
    "latitude": "-28.22987"
  },
  {
    "province": "Free State",
    "type": "Magistrate Court",
    "name": "Bloemfontein",
    "eqc": "Yes",
    "scc": "Yes",
    "soc": "Yes",
    "mds": "No",
    "tel": "051-5061111",
    "longitude": "26.2165",
    "latitude": "-29.12004"
  },
  {
    "province": "Free State",
    "type": "Magistrate Court",
    "name": "Botshabelo",
    "eqc": "Yes",
    "scc": "Yes",
    "soc": "Yes",
    "mds": "No",
    "tel": "051-5341078",
    "longitude": "26.71375",
    "latitude": "-29.23168"
  },
  {
    "province": "Free State",
    "type": "Magistrate Court",
    "name": "Koffiefontein",
    "eqc": "Yes",
    "scc": "Yes",
    "soc": "Yes",
    "mds": "No",
    "tel": "053-2050002",
    "longitude": "25.00256",
    "latitude": "-29.40947"
  },
  {
    "province": "Free State",
    "type": "Magistrate Court",
    "name": "Phuthaditjhaba",
    "eqc": "Yes",
    "scc": "Yes",
    "soc": "Yes",
    "mds": "No",
    "tel": "058-7130071",
    "longitude": "28.80829",
    "latitude": "-28.53581"
  },
  {
    "province": "Free State",
    "type": "Magistrate Court",
    "name": "Welkom",
    "eqc": "Yes",
    "scc": "Yes",
    "soc": "Yes",
    "mds": "No",
    "tel": "057-9162500/2515",
    "longitude": "26.73774",
    "latitude": "-27.97683"
  },
  {
    "province": "Gauteng",
    "type": "Magistrate Court",
    "name": "Heidelberg [GP]",
    "eqc": "Yes",
    "scc": "Yes",
    "soc": "Yes",
    "mds": "No",
    "tel": "016-3491930-3/6655",
    "longitude": "28.35462",
    "latitude": "-26.49941"
  },
  {
    "province": "Gauteng",
    "type": "Magistrate Court",
    "name": "Johannesburg",
    "eqc": "Yes",
    "scc": "Yes",
    "soc": "Yes",
    "mds": "Yes",
    "tel": "011-4915000/011-6390301",
    "longitude": "28.03468",
    "latitude": "-26.20798"
  },
  {
    "province": "Gauteng",
    "type": "Detached Court",
    "name": "Kagiso",
    "eqc": "Yes",
    "scc": "Yes",
    "soc": "Yes",
    "mds": "No",
    "tel": "011-4101485",
    "longitude": "27.78797",
    "latitude": "-26.15126"
  },
  {
    "province": "Gauteng",
    "type": "Magistrate Court",
    "name": "Kempton Park",
    "eqc": "Yes",
    "scc": "Yes",
    "soc": "Yes",
    "mds": "No",
    "tel": "011-3956300",
    "longitude": "28.2326",
    "latitude": "-26.10212"
  },
  {
    "province": "Gauteng",
    "type": "Branch Court",
    "name": "Kliptown",
    "eqc": "No",
    "scc": "Yes",
    "soc": "Yes",
    "mds": "No",
    "tel": "011-9451164",
    "longitude": "27.8874",
    "latitude": "-26.28322"
  },
  {
    "province": "Gauteng",
    "type": "Magistrate Court",
    "name": "Oberholzer",
    "eqc": "Yes",
    "scc": "Yes",
    "soc": "Yes",
    "mds": "No",
    "tel": "018-7882341/7",
    "longitude": "27.39068",
    "latitude": "-26.34875"
  },
  {
    "province": "Gauteng",
    "type": "Magistrate Court",
    "name": "Palm Ridge",
    "eqc": "Yes",
    "scc": "Yes",
    "soc": "Yes",
    "mds": "Yes",
    "tel": "010-2322000/2001",
    "longitude": "28.144237",
    "latitude": "-26.385538"
  },
  {
    "province": "Gauteng",
    "type": "Magistrate Court",
    "name": "Pretoria",
    "eqc": "Yes",
    "scc": "Yes",
    "soc": "Yes",
    "mds": "Yes",
    "tel": "012-3194000",
    "longitude": "28.18449",
    "latitude": "-25.74825"
  },
  {
    "province": "Gauteng",
    "type": "Magistrate Court",
    "name": "Pretoria North",
    "eqc": "Yes",
    "scc": "Yes",
    "soc": "Yes",
    "mds": "Yes",
    "tel": "012-5211002/4",
    "longitude": "28.1737",
    "latitude": "-25.67076"
  },
  {
    "province": "Gauteng",
    "type": "Detached Court",
    "name": "Sebokeng",
    "eqc": "No",
    "scc": "Yes",
    "soc": "Yes",
    "mds": "No",
    "tel": "016-9881320",
    "longitude": "27.84698",
    "latitude": "-26.60995"
  },
  {
    "province": "Gauteng",
    "type": "Detached Court",
    "name": "Soweto",
    "eqc": "No",
    "scc": "Yes",
    "soc": "Yes",
    "mds": "Yes",
    "tel": "011-9808130",
    "longitude": "27.83674",
    "latitude": "-26.27433"
  },
  {
    "province": "Gauteng",
    "type": "Magistrate Court",
    "name": "Springs",
    "eqc": "Yes",
    "scc": "Yes",
    "soc": "Yes",
    "mds": "No",
    "tel": "011-8112180-4",
    "longitude": "28.441991",
    "latitude": "-26.245373"
  },
  {
    "province": "KwaZulu-Natal",
    "type": "Magistrate Court",
    "name": "Durban",
    "eqc": "Yes",
    "scc": "Yes",
    "soc": "Yes",
    "mds": "No",
    "tel": "031-3024111",
    "longitude": "31.02868",
    "latitude": "-29.84468"
  },
  {
    "province": "KwaZulu-Natal",
    "type": "Magistrate Court",
    "name": "Emlazi",
    "eqc": "Yes",
    "scc": "Yes",
    "soc": "Yes",
    "mds": "No",
    "tel": "031-9073955/1670",
    "longitude": "30.92513",
    "latitude": "-29.96176"
  },
  {
    "province": "KwaZulu-Natal",
    "type": "Detached Court",
    "name": "Madadeni",
    "eqc": "Yes",
    "scc": "Yes",
    "soc": "Yes",
    "mds": "No",
    "tel": "034-3297500",
    "longitude": "30.02838",
    "latitude": "-27.76073"
  },
  {
    "province": "KwaZulu-Natal",
    "type": "Magistrate Court",
    "name": "Ntuzuma",
    "eqc": "Yes",
    "scc": "Yes",
    "soc": "Yes",
    "mds": "No",
    "tel": "031-5091405",
    "longitude": "30.99717",
    "latitude": "-29.7346"
  },
  {
    "province": "KwaZulu-Natal",
    "type": "Magistrate Court",
    "name": "Pietermaritzburg",
    "eqc": "Yes",
    "scc": "Yes",
    "soc": "Yes",
    "mds": "No",
    "tel": "033-3555100/5172",
    "longitude": "30.37971",
    "latitude": "-29.59972"
  },
  {
    "province": "KwaZulu-Natal",
    "type": "Magistrate Court",
    "name": "Scottburgh",
    "eqc": "Yes",
    "scc": "Yes",
    "soc": "Yes",
    "mds": "No",
    "tel": "039-9789400",
    "longitude": "30.75625",
    "latitude": "-30.28747"
  },
  {
    "province": "KwaZulu-Natal",
    "type": "Magistrate Court",
    "name": "Umbumbulu",
    "eqc": "Yes",
    "scc": "Yes",
    "soc": "Yes",
    "mds": "No",
    "tel": "031-9150100/01/02/03",
    "longitude": "30.70279",
    "latitude": "-29.98549"
  },
  {
    "province": "Limpopo",
    "type": "Magistrate Court",
    "name": "Groblersdal",
    "eqc": "Yes",
    "scc": "Yes",
    "soc": "Yes",
    "mds": "Yes",
    "tel": "013-2622033/34",
    "longitude": "29.39426",
    "latitude": "-25.16838"
  },
  {
    "province": "Limpopo",
    "type": "Magistrate Court",
    "name": "Lebowakgomo",
    "eqc": "Yes",
    "scc": "Yes",
    "soc": "Yes",
    "mds": "No",
    "tel": "015-6332600",
    "longitude": "29.47842",
    "latitude": "-24.32035"
  },
  {
    "province": "Limpopo",
    "type": "Magistrate Court",
    "name": "Lephalale",
    "eqc": "Yes",
    "scc": "Yes",
    "soc": "Yes",
    "mds": "Yes",
    "tel": "014-7632178/7631047",
    "longitude": "27.73573",
    "latitude": "-23.67796"
  },
  {
    "province": "Limpopo",
    "type": "Magistrate Court",
    "name": "Louis Trichardt",
    "eqc": "Yes",
    "scc": "Yes",
    "soc": "Yes",
    "mds": "No",
    "tel": "015-5160181/2/3",
    "longitude": "29.90637",
    "latitude": "-23.03811"
  },
  {
    "province": "Limpopo",
    "type": "Magistrate Court",
    "name": "Mahwelereng",
    "eqc": "Yes",
    "scc": "Yes",
    "soc": "Yes",
    "mds": "Yes",
    "tel": "015-4830302/3",
    "longitude": "28.98316",
    "latitude": "-24.15216"
  },
  {
    "province": "Limpopo",
    "type": "Magistrate Court",
    "name": "Mankweng",
    "eqc": "Yes",
    "scc": "Yes",
    "soc": "Yes",
    "mds": "No",
    "tel": "015-2862200",
    "longitude": "29.70164",
    "latitude": "-23.88197"
  },
  {
    "province": "Limpopo",
    "type": "Magistrate Court",
    "name": "Modimolle",
    "eqc": "Yes",
    "scc": "Yes",
    "soc": "Yes",
    "mds": "No",
    "tel": "014-7175316",
    "longitude": "28.40787",
    "latitude": "-24.70482"
  },
  {
    "province": "Limpopo",
    "type": "Magistrate Court",
    "name": "Morebeng",
    "eqc": "Yes",
    "scc": "Yes",
    "soc": "Yes",
    "mds": "No",
    "tel": "015-3977200",
    "longitude": "29.93585",
    "latitude": "-23.49485"
  },
  {
    "province": "Limpopo",
    "type": "Magistrate Court",
    "name": "Nebo",
    "eqc": "Yes",
    "scc": "Yes",
    "soc": "Yes",
    "mds": "No",
    "tel": "013-2648201",
    "longitude": "29.76015",
    "latitude": "-24.90708"
  },
  {
    "province": "Limpopo",
    "type": "Magistrate Court",
    "name": "Phalaborwa",
    "eqc": "Yes",
    "scc": "Yes",
    "soc": "Yes",
    "mds": "No",
    "tel": "015-7812731",
    "longitude": "31.13567",
    "latitude": "-23.95197"
  },
  {
    "province": "Limpopo",
    "type": "Magistrate Court",
    "name": "Schoonoord",
    "eqc": "Yes",
    "scc": "Yes",
    "soc": "Yes",
    "mds": "No",
    "tel": "013-2601001/02",
    "longitude": "30.01526",
    "latitude": "-24.75125"
  },
  {
    "province": "Mpumalanga",
    "type": "Branch Court",
    "name": "Boschfontein",
    "eqc": "No",
    "scc": "No",
    "soc": "Yes",
    "mds": "No",
    "tel": "013-7803312/3153",
    "longitude": "31.6118",
    "latitude": "-25.71414"
  },
  {
    "province": "Mpumalanga",
    "type": "Magistrate Court",
    "name": "Eerstehoek",
    "eqc": "Yes",
    "scc": "Yes",
    "soc": "Yes",
    "mds": "Yes",
    "tel": "017-8830090/9802",
    "longitude": "30.78769",
    "latitude": "-26.06114"
  },
  {
    "province": "Mpumalanga",
    "type": "Magistrate Court",
    "name": "KwaMhlanga",
    "eqc": "Yes",
    "scc": "Yes",
    "soc": "Yes",
    "mds": "No",
    "tel": "013-9472363/4",
    "longitude": "28.71456",
    "latitude": "-25.43336"
  },
  {
    "province": "Mpumalanga",
    "type": "Magistrate Court",
    "name": "Mbombela",
    "eqc": "Yes",
    "scc": "Yes",
    "soc": "Yes",
    "mds": "No",
    "tel": "013-7536200/99",
    "longitude": "30.97802",
    "latitude": "-25.46947"
  },
  {
    "province": "Mpumalanga",
    "type": "Magistrate Court",
    "name": "Middelburg [MP]",
    "eqc": "Yes",
    "scc": "Yes",
    "soc": "Yes",
    "mds": "No",
    "tel": "013-2837500",
    "longitude": "29.45718",
    "latitude": "-25.76177"
  },
  {
    "province": "Mpumalanga",
    "type": "Branch Court",
    "name": "Secunda",
    "eqc": "No",
    "scc": "Yes",
    "soc": "Yes",
    "mds": "No",
    "tel": "017-6311187/6347621",
    "longitude": "29.18619",
    "latitude": "-26.5046"
  },
  {
    "province": "Mpumalanga",
    "type": "Magistrate Court",
    "name": "Thulamahashe",
    "eqc": "Yes",
    "scc": "Yes",
    "soc": "Yes",
    "mds": "Yes",
    "tel": "013-7730431/0335",
    "longitude": "31.20421",
    "latitude": "-24.7255"
  },
  {
    "province": "North West",
    "type": "Magistrate Court",
    "name": "Brits",
    "eqc": "Yes",
    "scc": "Yes",
    "soc": "Yes",
    "mds": "Yes",
    "tel": "012-2523416/0676",
    "longitude": "27.77902",
    "latitude": "-25.63501"
  },
  {
    "province": "North West",
    "type": "Magistrate Court",
    "name": "Klerksdorp",
    "eqc": "Yes",
    "scc": "Yes",
    "soc": "Yes",
    "mds": "Yes",
    "tel": "018-4649200/018-4649211",
    "longitude": "26.66495",
    "latitude": "-26.86611"
  },
  {
    "province": "North West",
    "type": "Magistrate Court",
    "name": "Lichtenburg",
    "eqc": "Yes",
    "scc": "Yes",
    "soc": "Yes",
    "mds": "No",
    "tel": "018-6327900",
    "longitude": "26.1506",
    "latitude": "-26.15958"
  },
  {
    "province": "North West",
    "type": "Magistrate Court",
    "name": "Mankwe",
    "eqc": "Yes",
    "scc": "Yes",
    "soc": "Yes",
    "mds": "Yes",
    "tel": "014-5555800",
    "longitude": "27.2379",
    "latitude": "-25.27177"
  },
  {
    "province": "North West",
    "type": "Magistrate Court",
    "name": "Mmabatho",
    "eqc": "Yes",
    "scc": "Yes",
    "soc": "Yes",
    "mds": "Yes",
    "tel": "018-3878000",
    "longitude": "25.608403",
    "latitude": "-25.837015"
  },
  {
    "province": "North West",
    "type": "Magistrate Court",
    "name": "Potchefstroom",
    "eqc": "Yes",
    "scc": "Yes",
    "soc": "Yes",
    "mds": "Yes",
    "tel": "018-2941600",
    "longitude": "27.213076",
    "latitude": "-25.646229"
  },
  {
    "province": "North West",
    "type": "Magistrate Court",
    "name": "Schweizer-Reneke",
    "eqc": "Yes",
    "scc": "Yes",
    "soc": "Yes",
    "mds": "No",
    "tel": "053-9631203",
    "longitude": "27.23732",
    "latitude": "-25.66563"
  },
  {
    "province": "North West",
    "type": "Magistrate Court",
    "name": "Taung",
    "eqc": "Yes",
    "scc": "Yes",
    "soc": "Yes",
    "mds": "Yes",
    "tel": "053-9941828/9",
    "longitude": "24.77929",
    "latitude": "-27.54393"
  },
  {
    "province": "North West",
    "type": "Magistrate Court",
    "name": "Temba",
    "eqc": "Yes",
    "scc": "Yes",
    "soc": "Yes",
    "mds": "Yes",
    "tel": "012-7172179/3364/3527/3528",
    "longitude": "28.259469",
    "latitude": "-25.377309"
  },
  {
    "province": "Northern Cape",
    "type": "Magistrate Court",
    "name": "Barkly West",
    "eqc": "Yes",
    "scc": "Yes",
    "soc": "Yes",
    "mds": "No",
    "tel": "053-5310621/23",
    "longitude": "24.52611",
    "latitude": "-28.53662"
  },
  {
    "province": "Northern Cape",
    "type": "Magistrate Court",
    "name": "Colesberg",
    "eqc": "Yes",
    "scc": "Yes",
    "soc": "Yes",
    "mds": "No",
    "tel": "051-7538400",
    "longitude": "25.09577",
    "latitude": "-30.71992"
  },
  {
    "province": "Northern Cape",
    "type": "Magistrate Court",
    "name": "De Aar",
    "eqc": "Yes",
    "scc": "Yes",
    "soc": "Yes",
    "mds": "No",
    "tel": "053-6312184",
    "longitude": "24.01046",
    "latitude": "-30.65054"
  },
  {
    "province": "Northern Cape",
    "type": "Branch Court",
    "name": "Galeshewe Community Court",
    "eqc": "No",
    "scc": "Yes",
    "soc": "Yes",
    "mds": "No",
    "tel": "053-8070600/073-1133360",
    "longitude": "24.7234",
    "latitude": "-28.7155"
  },
  {
    "province": "Northern Cape",
    "type": "Detached Court",
    "name": "Kathu",
    "eqc": "Yes",
    "scc": "Yes",
    "soc": "Yes",
    "mds": "No",
    "tel": "053-7233221",
    "longitude": "23.04522",
    "latitude": "-27.69962"
  },
  {
    "province": "Northern Cape",
    "type": "Magistrate Court",
    "name": "Kimberley",
    "eqc": "Yes",
    "scc": "Yes",
    "soc": "Yes",
    "mds": "No",
    "tel": "053-8070600/073-1133360",
    "longitude": "24.76609",
    "latitude": "-28.73665"
  },
  {
    "province": "Northern Cape",
    "type": "Magistrate Court",
    "name": "Upington",
    "eqc": "Yes",
    "scc": "Yes",
    "soc": "Yes",
    "mds": "No",
    "tel": "054-3375300",
    "longitude": "21.23732",
    "latitude": "-28.46085"
  },
  {
    "province": "Western Cape",
    "type": "Detached Court",
    "name": "Atlantis",
    "eqc": "Yes",
    "scc": "Yes",
    "soc": "Yes",
    "mds": "No",
    "tel": "021-5721003",
    "longitude": "18.49383",
    "latitude": "-33.56632"
  },
  {
    "province": "Western Cape",
    "type": "Magistrate Court",
    "name": "Cape Town",
    "eqc": "Yes",
    "scc": "Yes",
    "soc": "Yes",
    "mds": "No",
    "tel": "021-4011511",
    "longitude": "18.42324",
    "latitude": "-33.92683"
  },
  {
    "province": "Western Cape",
    "type": "Magistrate Court",
    "name": "Mitchells Plain",
    "eqc": "Yes",
    "scc": "Yes",
    "soc": "Yes",
    "mds": "No",
    "tel": "021-3704200/4244",
    "longitude": "18.52404",
    "latitude": "-34.0482"
  },
  {
    "province": "Western Cape",
    "type": "Magistrate Court",
    "name": "Paarl",
    "eqc": "Yes",
    "scc": "Yes",
    "soc": "Yes",
    "mds": "No",
    "tel": "021-8723127",
    "longitude": "18.96939",
    "latitude": "-33.73793"
  },
  {
    "province": "Western Cape",
    "type": "Branch Court",
    "name": "Parow",
    "eqc": "No",
    "scc": "No",
    "soc": "Yes",
    "mds": "No",
    "tel": "021-9369400",
    "longitude": "18.59593",
    "latitude": "-33.90439"
  },
  {
    "province": "Western Cape",
    "type": "Branch Court",
    "name": "Thembalethu",
    "eqc": "No",
    "scc": "Yes",
    "soc": "Yes",
    "mds": "No",
    "tel": "044-8010100",
    "longitude": "22.48521",
    "latitude": "-34.00322"
  },
  {
    "province": "Western Cape",
    "type": "Magistrate Court",
    "name": "Wynberg [WC]",
    "eqc": "Yes",
    "scc": "Yes",
    "soc": "Yes",
    "mds": "No",
    "tel": "021-7991800",
    "longitude": "18.46617",
    "latitude": "-34.00409"
  }
]